[09-35-05-128]:
[09-35-05-138]:HGbp2016 Boot_ROM V0.1-
[09-35-05-139]:ROM (RW) Runtime addr: 0x0016E000, size 0x00010000(64 KB)
[09-35-05-142]:Bootloader Load addr  : 0x00100000, size 0x0006E000(440 KB)
[09-35-05-154]:Data Paramter addr   : 0x0017E000, size 0x00002000(8 KB)
[09-35-05-154]:boot type 3, 0:ahb read, 1: quad 2:quad+dma 3: simple
[09-35-05-155]:jedid = 0xEF4019, support device number :4
[09-35-05-158]:fl_rescan device match ok, and name: w25q256fv
[09-35-05-158]:
[09-35-05-170]:################### MBR Info ##################
[09-35-05-170]:Name           : mbr(self) 
[09-35-05-171]:flash address  : 0x0
[09-35-05-171]:flash size     : 0x40000 (256K)
[09-35-05-175]:crc16          : 0x3443
[09-35-05-176]:crc            : pass
[09-35-05-176]:
[09-35-05-186]:Name           : ramloader 
[09-35-05-186]:flash address  : 0x40000
[09-35-05-186]:flash size     : 0x80000 (512K)
[09-35-05-187]:crc16          : 0x759F
[09-35-05-187]:crc            : pass
[09-35-05-187]:
[09-35-05-190]:############### Total 3 partition #############
[09-35-05-190]:
[09-35-05-202]:eFuse data is invalid 
[09-35-05-202]:
[09-35-05-205]:mbr region: mbr(self) check ok
[09-35-05-206]:simple boot ...
[09-35-05-206]:
[09-35-05-206]:mbr region: ramloader check ok
[09-35-05-207]:BL_HDR
[09-35-05-211]:version        : 1.0v
[09-35-05-211]:cpu flash addr : 0x200
[09-35-05-224]:cpu size       : 0x8600 (33K)
[09-35-05-225]:cpu load addr  : 0x100000
[09-35-05-225]:cpu exec addr  : 0x100000
[09-35-05-243]:jump to bl
[09-35-05-243]:
[09-35-05-256]:oem BL(2019-10-23) ver(2ff606f7)
[09-35-05-256]:uart6/7 921600 Baudrate setting.
[09-35-05-274]:no fastboot booting.Normal booting...
[09-35-05-369]:no upgrade tool detected in 100ms, continue...
[09-35-06-377]:skip 1 s...
[09-35-07-368]:skip 2 s...
[09-35-08-377]:skip 3 s...
[09-35-08-377]:no input in 3S, continue...
[09-35-08-470]:boot bb fw! addr 0x20000000
[09-35-08-552]:qspi flash init ok, id = 15679513
[09-35-08-553]:
[09-35-08-568]:gpio init end
[09-35-08-568]:
[09-35-08-569]:comm interface init end
[09-35-08-569]:
[09-35-08-569]:Read ComCtlCfg failed!
[09-35-08-569]:
[09-35-08-569]:dac8560 init end
[09-35-08-583]:dac8560 set value: 0x9900
[09-35-08-583]:
[09-35-08-584]:rx3902b spi4 init end
[09-35-08-584]:
[09-35-08-598]:RX3902B_1 read, 0, FFF00, 5D500
[09-35-08-615]:RX3902B_1 read, 10, 98E3E, 930C2
[09-35-08-615]:RX3902B_1 read, 11, B1C7C, A8A3C
[09-35-08-616]:RX3902B_1 read, 12, B1C7C, A69AC
[09-35-08-627]:RX3902B_1 read, 21, 420AE, 420AA
[09-35-08-627]:RX3902B_1 read, 22, 75541, 75540
[09-35-08-628]:RX3902B_1 read, 29, 4208D, 4208C
[09-35-08-630]:RX3902B_1 read, 30, 75541, 75540
[09-35-08-647]:RX3902B_1 read, 36, 420A8, 420A4
[09-35-08-648]:RX3902B_1 read, 37, 75541, 75540
[09-35-08-648]:RX3902B_1 read, 38, EE296, EFA96
[09-35-08-648]:rx3902_1 init end
[09-35-08-664]:
[09-35-08-665]:RTC Init success!
[09-35-08-665]:create thread for clear rtc interrupt
[09-35-08-665]:RTC Init end!
[09-35-08-665]:
[09-35-08-666]:pll3 init end
[09-35-08-677]:adc0-2 init end
[09-35-08-677]:IF init end
[09-35-08-677]:
[09-35-08-677]:Release Message:
[09-35-08-677]:        support board: bp2016_oem_board-DDR
[09-35-08-677]:        Major Version: 1
[09-35-08-678]:        Minor Version: 56
[09-35-08-685]:        Date: 20191011
[09-35-08-686]:        Git Version: 68d51df0
[09-35-08-790]:$--GGA,000000.00,,,,,0,0,,,,,,,*6F
[09-35-09-797]:$--GGA,000000.00,,,,,0,0,,,,,,,*6F
[09-35-10-792]:$--GGA,000000.00,,,,,0,0,,,,,,,*6F
[09-35-12-085]:$BDGSV,2,1,08,01,00,000,42.4,02,00,000,42.4,03,00,000,44.8,04,00,000,37.5*6E
[09-35-12-102]:$BDGSV,2,2,08,05,00,000,39.4,18,00,000,42.1,06,00,000,39.7,08,00,000,33.3*65
[09-35-12-183]:$--GGA,013546.00,,,,,0,0,,,,,,,*6A
[09-35-13-091]:$BDGSV,3,1,10,01,00,000,43.7,02,00,000,41.0,03,00,000,44.6,04,00,000,38.4*63
[09-35-13-092]:$BDGSV,3,2,10,05,00,000,38.9,18,00,000,43.9,06,00,000,44.8,08,00,000,45.5*6A
[09-35-13-097]:$BDGSV,3,3,10,09,00,000,42.4,13,00,000,44.4,,,,,,,,*64
[09-35-13-190]:$--GGA,013547.00,,,,,0,0,,,,,,,*6B
[09-35-14-083]:$BDGSV,3,1,10,01,00,000,44.5,02,00,000,41.2,03,00,000,43.2,04,00,000,37.9*65
[09-35-14-108]:$BDGSV,3,2,10,05,00,000,39.3,18,00,000,43.7,06,00,000,44.7,08,00,000,45.9*6C
[09-35-14-108]:$BDGSV,3,3,10,09,00,000,42.5,13,00,000,46.4,,,,,,,,*67
[09-35-14-183]:$--GGA,013548.00,,,,,0,0,,,,,,,*64
[09-35-15-091]:$BDGSV,3,1,10,01,00,000,43.3,02,00,000,41.5,03,00,000,44.6,04,00,000,39.7*60
[09-35-15-092]:$BDGSV,3,2,10,05,00,000,40.1,18,00,000,45.8,06,00,000,45.7,08,00,000,44.8*68
[09-35-15-097]:$BDGSV,3,3,10,09,00,000,42.8,13,00,000,46.3,,,,,,,,*6D
[09-35-15-193]:$--GGA,013549.00,,,,,0,0,,,,,,,*65
[09-35-16-082]:$BDGSV,3,1,10,01,00,000,43.7,02,00,000,41.1,03,00,000,44.7,04,00,000,40.9*61
[09-35-16-103]:$BDGSV,3,2,10,05,00,000,39.4,18,00,000,44.9,06,00,000,44.6,08,00,000,45.6*6C
[09-35-16-104]:$BDGSV,3,3,10,09,00,000,42.7,13,00,000,46.3,,,,,,,,*62
[09-35-16-183]:$--GGA,013550.00,,,,,0,0,,,,,,,*6D
[09-35-17-093]:$GPGSV,1,1,02,02,00,000,39.9,05,00,000,47.9,,,,,,,,*75
[09-35-17-094]:$BDGSV,3,1,10,01,00,000,45.2,02,00,000,41.3,03,00,000,42.0,04,00,000,40.3*6B
[09-35-17-097]:$BDGSV,3,2,10,05,00,000,39.4,18,00,000,43.5,06,00,000,44.4,08,00,000,44.9*6B
[09-35-17-111]:$BDGSV,3,3,10,09,00,000,42.2,13,00,000,46.0,,,,,,,,*64
[09-35-17-190]:$--GGA,013551.00,,,,,0,0,,,,,,,*6C
[09-35-18-087]:$GPGSV,2,1,06,02,00,000,47.6,05,00,000,49.2,06,00,000,41.1,07,00,000,40.1*71
[09-35-18-098]:$GPGSV,2,2,06,12,00,000,40.5,04,00,000,43.8,,,,,,,,*76
[09-35-18-099]:$BDGSV,3,1,10,01,00,000,44.4,02,00,000,41.0,03,00,000,44.9,04,00,000,40.3*60
[09-35-18-103]:$BDGSV,3,2,10,05,00,000,38.5,18,00,000,44.8,06,00,000,44.9,08,00,000,46.0*67
[09-35-18-118]:$BDGSV,3,3,10,09,00,000,42.5,13,00,000,46.1,,,,,,,,*62
[09-35-18-182]:$--GGA,013552.00,,,,,0,0,,,,,,,*6F
[09-35-19-093]:$GPGSV,2,1,06,02,00,000,47.7,05,00,000,49.7,06,00,000,41.1,07,00,000,39.5*7F
[09-35-19-093]:$GPGSV,2,2,06,12,00,000,40.1,04,00,000,43.4,,,,,,,,*7E
[09-35-19-107]:$GLGSV,1,1,04,65,00,000,46.8,84,00,000,45.2,83,00,000,50.4,81,00,000,48.9*61
[09-35-19-107]:$BDGSV,3,1,10,01,00,000,44.9,02,00,000,41.5,03,00,000,45.0,04,00,000,37.9*6A
[09-35-19-111]:$BDGSV,3,2,10,05,00,000,40.1,18,00,000,43.8,06,00,000,45.1,08,00,000,45.6*67
[09-35-19-128]:$BDGSV,3,3,10,09,00,000,42.4,13,00,000,46.3,,,,,,,,*61
[09-35-19-192]:$--GGA,013553.00,,,,,0,0,,,,,,,*6E
[09-35-20-087]:$GPGSV,2,1,06,02,00,000,47.6,05,00,000,49.4,06,00,000,42.0,07,00,000,39.8*72
[09-35-20-099]:$GPGSV,2,2,06,12,00,000,39.9,04,00,000,43.8,,,,,,,,*74
[09-35-20-100]:$GLGSV,2,1,05,65,00,000,47.8,84,00,000,47.8,83,00,000,50.8,81,00,000,49.8*66
[09-35-20-105]:$GLGSV,2,2,05,66,00,000,53.0,,,,,,,,,,,,*48
[09-35-20-115]:$BDGSV,3,1,10,01,00,000,43.9,02,00,000,41.1,03,00,000,45.8,04,00,000,38.7*60
[09-35-20-116]:$BDGSV,3,2,10,05,00,000,40.4,18,00,000,44.0,06,00,000,45.3,08,00,000,45.6*6F
[09-35-20-137]:$BDGSV,3,3,10,09,00,000,42.5,13,00,000,45.4,,,,,,,,*64
[09-35-20-185]:$--GGA,013554.00,,,,,0,0,,,,,,,*69
[09-35-21-090]:$GPGSV,2,1,06,02,00,000,47.5,05,00,000,49.7,06,00,000,42.4,07,00,000,38.9*76
[09-35-21-090]:$GPGSV,2,2,06,12,00,000,40.3,04,00,000,43.7,,,,,,,,*7F
[09-35-21-106]:$GLGSV,2,1,05,65,00,000,47.5,84,00,000,47.4,83,00,000,50.5,81,00,000,49.7*65
[09-35-21-106]:$GLGSV,2,2,05,66,00,000,53.3,,,,,,,,,,,,*4B
[09-35-21-109]:$BDGSV,3,1,12,01,00,000,43.5,02,00,000,42.6,03,00,000,44.8,04,00,000,39.2*6F
[09-35-21-121]:$BDGSV,3,2,12,05,00,000,39.9,18,00,000,44.4,06,00,000,44.5,16,00,000,40.7*66
[09-35-21-125]:$BDGSV,3,3,12,08,00,000,45.5,09,00,000,42.7,19,00,000,36.2,13,00,000,46.1*61
[09-35-21-190]:$--GGA,013555.00,,,,,0,0,,,,,,,*68
[09-35-22-088]:$GPGSV,2,1,06,02,00,000,47.8,05,00,000,48.9,06,00,000,42.3,07,00,000,37.8*7D
[09-35-22-099]:$GPGSV,2,2,06,12,00,000,40.8,04,00,000,43.6,,,,,,,,*75
[09-35-22-099]:$GLGSV,2,1,05,65,00,000,47.5,84,00,000,47.4,83,00,000,50.2,81,00,000,49.9*6C
[09-35-22-107]:$GLGSV,2,2,05,66,00,000,53.7,,,,,,,,,,,,*4F
[09-35-22-122]:$BDGSV,4,1,14,01,00,000,45.1,02,00,000,41.5,03,00,000,45.0,04,00,000,39.2*65
[09-35-22-123]:$BDGSV,4,2,14,05,00,000,39.1,18,00,000,43.5,06,00,000,44.8,16,00,000,44.6*61
[09-35-22-137]:$BDGSV,4,3,14,08,00,000,45.8,09,00,000,42.4,19,00,000,49.7,20,00,000,45.7*66
[09-35-22-137]:$BDGSV,4,4,14,13,00,000,46.5,22,00,000,46.2,,,,,,,,*68
[09-35-22-183]:$--GGA,013556.00,,,,,0,0,,,,,,,*6B
[09-35-23-089]:$GPGSV,2,1,06,02,00,000,47.4,05,00,000,49.8,06,00,000,42.7,07,00,000,38.6*74
[09-35-23-090]:$GPGSV,2,2,06,12,00,000,39.5,04,00,000,43.8,,,,,,,,*78
[09-35-23-105]:$GLGSV,2,1,05,65,00,000,47.7,84,00,000,47.5,83,00,000,50.8,81,00,000,50.0*64
[09-35-23-105]:$GLGSV,2,2,05,66,00,000,53.6,,,,,,,,,,,,*4E
[09-35-23-110]:$BDGSV,4,1,14,01,00,000,43.5,02,00,000,41.1,03,00,000,42.9,04,00,000,40.2*63
[09-35-23-122]:$BDGSV,4,2,14,05,00,000,39.3,18,00,000,45.3,06,00,000,44.7,16,00,000,45.6*6D
[09-35-23-123]:$BDGSV,4,3,14,08,00,000,45.9,09,00,000,42.3,19,00,000,50.6,20,00,000,46.6*6B
[09-35-23-127]:$BDGSV,4,4,14,13,00,000,46.2,22,00,000,47.2,,,,,,,,*6E
[09-35-23-189]:$--GGA,013557.00,,,,,0,0,,,,,,,*6A
[09-35-24-090]:$GPGSV,2,1,08,13,00,000,62.0,02,00,000,47.7,15,00,000,62.0,05,00,000,49.5*7F
[09-35-24-099]:$GPGSV,2,2,08,06,00,000,41.6,07,00,000,38.8,12,00,000,40.5,04,00,000,43.5*74
[09-35-24-109]:$GLGSV,2,1,05,65,00,000,47.6,84,00,000,47.6,83,00,000,50.3,81,00,000,49.6*63
[09-35-24-109]:$GLGSV,2,2,05,66,00,000,53.5,,,,,,,,,,,,*4D
[09-35-24-119]:$BDGSV,4,1,14,01,00,000,44.4,02,00,000,41.0,03,00,000,43.5,04,00,000,38.0*64
[09-35-24-120]:$BDGSV,4,2,14,05,00,000,39.0,18,00,000,44.1,06,00,000,44.8,16,00,000,44.9*6C
[09-35-24-133]:$BDGSV,4,3,14,08,00,000,45.4,09,00,000,42.4,19,00,000,50.9,20,00,000,46.3*6B
[09-35-24-134]:$BDGSV,4,4,14,13,00,000,46.5,22,00,000,46.8,,,,,,,,*62
[09-35-24-181]:$--GGA,013558.00,,,,,0,0,,,,,,,*65
[09-35-25-090]:$GPGSV,3,1,11,13,00,000,48.5,02,00,000,47.7,15,00,000,44.1,05,00,000,49.6*7D
[09-35-25-098]:$GPGSV,3,2,11,06,00,000,41.1,07,00,000,39.6,19,00,000,37.4,12,00,000,40.6*78
[09-35-25-109]:$GPGSV,3,3,11,04,00,000,43.7,25,00,000,41.4,30,00,000,40.3,,,,*51
[09-35-25-110]:$GLGSV,2,1,05,65,00,000,48.0,84,00,000,47.7,83,00,000,50.4,81,00,000,50.0*62
[09-35-25-110]:$GLGSV,2,2,05,66,00,000,53.1,,,,,,,,,,,,*49
[09-35-25-121]:$BDGSV,4,1,14,01,00,000,42.7,02,00,000,44.1,03,00,000,42.5,04,00,000,38.3*67
[09-35-25-129]:$BDGSV,4,2,14,05,00,000,39.3,18,00,000,43.3,06,00,000,44.7,16,00,000,45.0*6D
[09-35-25-144]:$BDGSV,4,3,14,08,00,000,44.9,09,00,000,42.6,19,00,000,51.0,20,00,000,46.7*69
[09-35-25-145]:$BDGSV,4,4,14,13,00,000,46.1,22,00,000,47.5,,,,,,,,*6A
[09-35-25-191]:$--GGA,013559.00,,,,,0,0,,,,,,,*64
[09-35-26-087]:$GPGSV,3,1,11,13,00,000,47.2,02,00,000,48.0,15,00,000,44.2,05,00,000,49.0*78
[09-35-26-098]:$GPGSV,3,2,11,06,00,000,41.7,07,00,000,39.7,19,00,000,36.8,12,00,000,40.1*75
[09-35-26-098]:$GPGSV,3,3,11,04,00,000,44.4,25,00,000,41.4,30,00,000,40.8,,,,*5E
[09-35-26-114]:$GLGSV,2,1,05,65,00,000,47.9,84,00,000,47.4,83,00,000,50.8,81,00,000,49.7*64
[09-35-26-115]:$GLGSV,2,2,05,66,00,000,53.4,,,,,,,,,,,,*4C
[09-35-26-121]:$BDGSV,4,1,14,01,00,000,42.5,02,00,000,42.3,03,00,000,44.7,04,00,000,40.0*69
[09-35-26-129]:$BDGSV,4,2,14,05,00,000,38.5,18,00,000,42.7,06,00,000,45.3,16,00,000,44.8*63
[09-35-26-130]:$BDGSV,4,3,14,08,00,000,45.5,09,00,000,42.6,19,00,000,50.3,20,00,000,46.9*68
[09-35-26-149]:$BDGSV,4,4,14,13,00,000,46.6,22,00,000,46.8,,,,,,,,*61
[09-35-26-181]:$--GGA,013600.00,,,,,0,0,,,,,,,*6B
[09-35-27-089]:$GPGSV,3,1,11,13,00,000,46.3,02,00,000,46.9,15,00,000,43.3,05,00,000,48.0*78
[09-35-27-101]:$GPGSV,3,2,11,06,00,000,41.7,07,00,000,39.8,19,00,000,37.5,12,00,000,40.6*71
[09-35-27-110]:$GPGSV,3,3,11,04,00,000,43.5,25,00,000,41.2,30,00,000,40.6,,,,*50
[09-35-27-110]:$GLGSV,2,1,05,65,00,000,47.1,84,00,000,46.8,83,00,000,49.3,81,00,000,47.9*62
[09-35-27-111]:$GLGSV,2,2,05,66,00,000,51.9,,,,,,,,,,,,*43
[09-35-27-120]:$BDGSV,4,1,14,01,00,000,43.3,02,00,000,39.5,03,00,000,43.6,04,00,000,40.1*63
[09-35-27-129]:$BDGSV,4,2,14,05,00,000,39.4,18,00,000,44.3,06,00,000,44.6,16,00,000,44.7*6A
[09-35-27-145]:$BDGSV,4,3,14,08,00,000,45.1,09,00,000,42.3,19,00,000,49.9,20,00,000,45.8*69
[09-35-27-146]:$BDGSV,4,4,14,13,00,000,46.2,22,00,000,46.8,,,,,,,,*65
[09-35-27-189]:$--GGA,013601.00,,,,,0,0,,,,,,,*6A
[09-35-28-087]:$GPGSV,3,1,11,13,00,000,47.5,02,00,000,47.6,15,00,000,44.1,05,00,000,49.2*77
[09-35-28-098]:$GPGSV,3,2,11,06,00,000,42.2,07,00,000,39.1,19,00,000,38.1,12,00,000,39.8*75
[09-35-28-099]:$GPGSV,3,3,11,04,00,000,44.5,25,00,000,41.3,30,00,000,41.0,,,,*51
[09-35-28-119]:$GLGSV,2,1,05,65,00,000,48.2,84,00,000,48.2,83,00,000,50.6,81,00,000,49.9*69
[09-35-28-120]:$GLGSV,2,2,05,66,00,000,53.3,,,,,,,,,,,,*4B
[09-35-28-121]:$BDGSV,4,1,14,01,00,000,43.3,02,00,000,43.5,03,00,000,43.2,04,00,000,40.5*6E
[09-35-28-128]:$BDGSV,4,2,14,05,00,000,39.3,18,00,000,43.5,06,00,000,45.2,16,00,000,45.4*6B
[09-35-28-138]:$BDGSV,4,3,14,08,00,000,45.1,09,00,000,42.5,19,00,000,51.0,20,00,000,46.6*62
[09-35-28-151]:$BDGSV,4,4,14,13,00,000,46.4,22,00,000,47.5,,,,,,,,*6F
[09-35-28-186]:$--GGA,013602.00,,,,,0,0,,,,,,,*69
[09-35-42-318]:$GPGSV,3,1,11,13,00,000,46.9,02,00,000,47.7,15,00,000,44.7,05,00,000,48.6*78
[09-35-42-318]:$GPGSV,3,2,11,06,00,000,41.4,07,00,000,39.2,19,00,000,36.8,12,00,000,41.0*73
[09-35-42-318]:$GPGSV,3,3,11,04,00,000,44.3,25,00,000,41.2,30,00,000,40.9,,,,*5E
[09-35-42-319]:$GLGSV,2,1,05,65,00,000,47.6,84,00,000,47.5,83,00,000,49.9,81,00,000,49.9*6D
[09-35-42-319]:$GLGSV,2,2,05,66,00,000,53.0,,,,,,,,,,,,*48
[09-35-42-319]:$BDGSV,4,1,14,01,00,000,42.4,02,00,000,39.3,03,00,000,46.5,04,00,000,38.2*69
[09-35-42-320]:$BDGSV,4,2,14,05,00,000,39.4,18,00,000,46.1,06,00,000,44.7,16,00,000,45.5*68
[09-35-42-320]:$BDGSV,4,3,14,08,00,000,46.0,09,00,000,42.3,19,00,000,51.2,20,00,000,46.5*67
[09-35-42-320]:$BDGSV,4,4,14,13,00,000,46.0,22,00,000,47.3,,,,,,,,*6D
[09-35-42-320]:$--GGA,013603.00,,,,,0,0,,,,,,,*68
[09-35-42-321]:$GPGSV,3,1,11,13,00,000,47.3,02,00,000,48.1,15,00,000,44.9,05,00,000,48.5*77
[09-35-42-321]:$GPGSV,3,2,11,06,00,000,42.1,07,00,000,39.0,19,00,000,37.4,12,00,000,40.1*7A
[09-35-42-322]:$GPGSV,3,3,11,04,00,000,44.8,25,00,000,41.5,30,00,000,40.5,,,,*5E
[09-35-42-323]:$GLGSV,2,1,05,65,00,000,47.9,84,00,000,47.5,83,00,000,50.4,81,00,000,49.6*68
[09-35-42-323]:$GLGSV,2,2,05,66,00,000,53.7,,,,,,,,,,,,*4F
[09-35-42-323]:$BDGSV,4,1,14,01,00,000,43.3,02,00,000,43.2,03,00,000,43.9,04,00,000,37.7*60
[09-35-42-323]:$BDGSV,4,2,14,05,00,000,38.6,18,00,000,45.8,06,00,000,44.7,16,00,000,45.2*66
[09-35-42-324]:$BDGSV,4,3,14,08,00,000,45.4,09,00,000,42.1,19,00,000,51.2,20,00,000,46.3*64
[09-35-42-324]:$BDGSV,4,4,14,13,00,000,45.5,22,00,000,47.3,,,,,,,,*6B
[09-35-42-324]:$--GGA,013604.00,,,,,0,0,,,,,,,*6F
[09-35-42-324]:$GPGSV,3,1,11,13,00,000,47.1,02,00,000,47.7,15,00,000,43.5,05,00,000,48.8*7A
[09-35-42-325]:$GPGSV,3,2,11,06,00,000,41.9,07,00,000,39.4,19,00,000,37.3,12,00,000,40.0*73
[09-35-42-325]:$GPGSV,3,3,11,04,00,000,43.7,25,00,000,41.7,30,00,000,40.7,,,,*56
[09-35-42-325]:$GLGSV,2,1,05,65,00,000,47.8,84,00,000,46.8,83,00,000,50.3,81,00,000,50.1*6D
[09-35-42-325]:$GLGSV,2,2,05,66,00,000,53.1,,,,,,,,,,,,*49
[09-35-42-326]:$BDGSV,4,1,14,01,00,000,44.2,02,00,000,41.4,03,00,000,44.3,04,00,000,40.2*6A
[09-35-42-327]:$BDGSV,4,2,14,05,00,000,40.2,18,00,000,43.3,06,00,000,45.4,16,00,000,45.7*67
[09-35-42-327]:$BDGSV,4,3,14,08,00,000,45.7,09,00,000,42.2,19,00,000,50.7,20,00,000,46.4*67
[09-35-42-327]:$BDGSV,4,4,14,13,00,000,45.9,22,00,000,47.4,,,,,,,,*60
[09-35-42-327]:$--GGA,013605.00,,,,,0,0,,,,,,,*6E
[09-35-42-327]:$GPGSV,3,1,11,13,00,000,47.3,02,00,000,48.6,15,00,000,44.0,05,00,000,49.2*7F
[09-35-42-327]:$GPGSV,3,2,11,06,00,000,42.4,07,00,000,39.1,19,00,000,37.2,12,00,000,40.6*7F
[09-35-42-328]:$GPGSV,3,3,11,04,00,000,44.1,25,00,000,41.3,30,00,000,41.0,,,,*55
[09-35-42-328]:$GLGSV,2,1,05,65,00,000,47.9,84,00,000,47.6,83,00,000,50.2,81,00,000,49.7*6C
[09-35-42-328]:$GLGSV,2,2,05,66,00,000,53.4,,,,,,,,,,,,*4C
[09-35-42-328]:$BDGSV,4,1,14,01,00,000,43.9,02,00,000,41.7,03,00,000,45.8,04,00,000,40.7*6A
[09-35-42-328]:$BDGSV,4,2,14,05,00,000,37.8,18,00,000,43.4,06,00,000,45.0,16,00,000,45.1*68
[09-35-42-328]:$BDGSV,4,3,14,08,00,000,45.7,09,00,000,42.5,19,00,000,50.4,20,00,000,46.6*61
[09-35-42-328]:$BDGSV,4,4,14,13,00,000,46.8,22,00,000,47.6,,,,,,,,*60
[09-35-42-329]:$--GGA,013606.00,,,,,0,0,,,,,,,*6D
[09-35-42-329]:$GPGSV,3,1,11,13,00,000,47.1,02,00,000,48.9,15,00,000,44.0,05,00,000,48.7*76
[09-35-42-329]:$GPGSV,3,2,11,06,00,000,41.9,07,00,000,39.6,25,00,000,39.4,19,00,000,37.4*78
[09-35-42-329]:$GPGSV,3,3,11,12,00,000,40.0,04,00,000,43.5,30,00,000,40.8,,,,*59
[09-35-42-329]:$GLGSV,2,1,05,65,00,000,48.2,84,00,000,47.6,83,00,000,49.9,81,00,000,49.6*6A
[09-35-42-329]:$GLGSV,2,2,05,66,00,000,53.3,,,,,,,,,,,,*4B
[09-35-42-329]:$BDGSV,4,1,14,01,00,000,44.3,02,00,000,42.1,03,00,000,42.5,04,00,000,40.5*6A
[09-35-42-329]:$BDGSV,4,2,14,05,00,000,39.6,18,00,000,43.7,06,00,000,45.0,16,00,000,45.2*68
[09-35-42-330]:$BDGSV,4,3,14,08,00,000,45.4,09,00,000,42.9,19,00,000,50.2,20,00,000,47.3*6C
[09-35-42-330]:$BDGSV,4,4,14,13,00,000,46.2,22,00,000,47.3,,,,,,,,*6F
[09-35-42-330]:$--GGA,013607.00,,,,,0,0,,,,,,,*6C
[09-35-42-330]:$GPGSV,3,1,11,13,00,000,47.1,02,00,000,48.7,15,00,000,44.6,05,00,000,48.1*78
[09-35-42-330]:$GPGSV,3,2,11,06,00,000,41.3,07,00,000,38.3,25,00,000,38.5,19,00,000,38.3*7E
[09-35-42-331]:$GPGSV,3,3,11,12,00,000,40.6,04,00,000,44.3,30,00,000,40.5,,,,*53
[09-35-42-331]:$GLGSV,2,1,05,65,00,000,47.9,84,00,000,47.2,83,00,000,49.8,81,00,000,50.3*66
[09-35-42-331]:$GLGSV,2,2,05,66,00,000,53.3,,,,,,,,,,,,*4B
[09-35-42-331]:$BDGSV,4,1,14,01,00,000,42.2,02,00,000,42.5,03,00,000,44.0,04,00,000,39.3*62
[09-35-42-332]:$BDGSV,4,2,14,05,00,000,40.5,18,00,000,44.0,06,00,000,45.4,16,00,000,45.1*62
[09-35-42-332]:$BDGSV,4,3,14,08,00,000,45.7,09,00,000,42.2,19,00,000,50.8,20,00,000,47.1*6C
[09-35-42-332]:$BDGSV,4,4,14,13,00,000,46.1,22,00,000,46.9,,,,,,,,*67
[09-35-42-332]:$--GGA,013608.00,,,,,0,0,,,,,,,*63
[09-35-42-332]:$GPGSV,3,1,12,13,00,000,47.2,02,00,000,48.5,15,00,000,44.2,05,00,000,48.4*7B
[09-35-42-332]:$GPGSV,3,2,12,06,00,000,41.3,07,00,000,37.7,25,00,000,39.3,29,00,000,62.0*7E
[09-35-42-332]:$GPGSV,3,3,12,30,00,000,40.7,19,00,000,37.9,12,00,000,39.9,04,00,000,43.9*75
[09-35-42-332]:$GLGSV,2,1,05,65,00,000,47.8,84,00,000,47.1,83,00,000,50.5,81,00,000,50.2*60
[09-35-42-332]:$GLGSV,2,2,05,66,00,000,53.2,,,,,,,,,,,,*4A
[09-35-42-333]:$BDGSV,4,1,14,01,00,000,43.3,02,00,000,41.0,03,00,000,45.4,04,00,000,39.9*6B
[09-35-42-333]:$BDGSV,4,2,14,05,00,000,39.6,18,00,000,43.0,06,00,000,45.1,16,00,000,45.7*6B
[09-35-42-333]:$BDGSV,4,3,14,08,00,000,45.9,09,00,000,42.6,19,00,000,50.4,20,00,000,46.7*6D
[09-35-42-333]:$BDGSV,4,4,14,13,00,000,46.1,22,00,000,47.0,,,,,,,,*6F
[09-35-42-333]:$--GGA,013609.00,,,,,0,0,,,,,,,*62
[09-35-42-333]:$GPGSV,3,1,12,13,00,000,46.6,02,00,000,47.2,15,00,000,43.9,05,00,000,48.2*7C
[09-35-42-333]:$GPGSV,3,2,12,06,00,000,41.2,07,00,000,38.5,25,00,000,38.8,29,00,000,45.5*78
[09-35-42-333]:$GPGSV,3,3,12,30,00,000,41.3,19,00,000,37.3,12,00,000,40.5,04,00,000,44.2*74
[09-35-42-334]:$GLGSV,2,1,05,65,00,000,47.9,84,00,000,47.2,83,00,000,49.8,81,00,000,49.6*6B
[09-35-42-334]:$GLGSV,2,2,05,66,00,000,52.3,,,,,,,,,,,,*4A
[09-35-42-334]:$BDGSV,4,1,15,01,00,000,45.6,02,00,000,40.3,03,00,000,43.9,04,00,000,38.3*6B
[09-35-42-334]:$BDGSV,4,2,15,05,00,000,40.0,18,00,000,43.3,06,00,000,45.0,16,00,000,44.4*62
[09-35-42-334]:$BDGSV,4,3,15,08,00,000,45.3,09,00,000,42.0,29,00,000,40.7,19,00,000,50.2*69
[09-35-42-335]:$BDGSV,4,4,15,20,00,000,46.6,13,00,000,45.7,22,00,000,46.9,,,,*4B
[09-35-42-336]:$--GGA,013610.00,,,,,0,0,,,,,,,*6A
[09-35-42-336]:$GPGSV,3,1,12,13,00,000,46.7,02,00,000,46.4,15,00,000,44.3,05,00,000,47.7*7D
[09-35-42-336]:$GPGSV,3,2,12,06,00,000,41.6,07,00,000,38.0,25,00,000,38.5,29,00,000,44.7*77
[09-35-42-336]:$GPGSV,3,3,12,30,00,000,41.6,19,00,000,37.8,12,00,000,40.2,04,00,000,43.6*7E
[09-35-42-336]:$GLGSV,2,1,05,65,00,000,47.2,84,00,000,46.8,83,00,000,48.6,81,00,000,47.7*6B
[09-35-42-336]:$GLGSV,2,2,05,66,00,000,51.8,,,,,,,,,,,,*42
[09-35-42-337]:$BDGSV,4,1,15,01,00,000,44.5,02,00,000,41.2,03,00,000,43.9,04,00,000,39.2*69
[09-35-42-337]:$BDGSV,4,2,15,05,00,000,40.2,18,00,000,42.7,06,00,000,44.6,16,00,000,44.9*6F
[09-35-42-337]:$BDGSV,4,3,15,08,00,000,45.3,09,00,000,41.8,29,00,000,48.2,19,00,000,49.2*67
[09-35-42-337]:$BDGSV,4,4,15,20,00,000,46.5,13,00,000,45.9,22,00,000,46.3,,,,*4C
[09-35-42-337]:$--GGA,013611.00,,,,,0,0,,,,,,,*6B
[09-35-42-338]:$GPGSV,3,1,12,13,00,000,47.8,02,00,000,47.8,15,00,000,43.8,05,00,000,49.1*7A
[09-35-42-338]:$GPGSV,3,2,12,06,00,000,41.9,07,00,000,37.5,25,00,000,39.3,29,00,000,45.4*77
[09-35-42-338]:$GPGSV,3,3,12,30,00,000,40.9,19,00,000,37.3,12,00,000,40.0,04,00,000,43.8*77
[09-35-42-338]:$GLGSV,2,1,05,65,00,000,47.8,84,00,000,47.7,83,00,000,50.8,81,00,000,50.1*68
[09-35-42-338]:$GLGSV,2,2,05,66,00,000,53.3,,,,,,,,,,,,*4B
[09-35-42-338]:$BDGSV,4,1,15,01,00,000,42.9,02,00,000,41.7,03,00,000,43.5,04,00,000,38.7*6E
[09-35-42-338]:$BDGSV,4,2,15,05,00,000,39.8,18,00,000,43.9,06,00,000,45.0,16,00,000,45.2*69
[09-35-42-339]:$BDGSV,4,3,15,08,00,000,45.7,09,00,000,42.5,29,00,000,49.6,19,00,000,50.9*6B
[09-35-42-339]:$BDGSV,4,4,15,20,00,000,46.8,13,00,000,46.6,22,00,000,47.1,,,,*4E
[09-35-42-339]:$--GGA,013612.00,,,,,0,0,,,,,,,*68
[09-35-42-339]:$GPGSV,3,1,12,13,00,000,47.8,02,00,000,47.5,15,00,000,44.3,05,00,000,49.3*79
[09-35-42-339]:$GPGSV,3,2,12,06,00,000,42.3,07,00,000,37.7,25,00,000,39.0,29,00,000,45.0*7B
[09-35-42-339]:$GPGSV,3,3,12,30,00,000,40.7,19,00,000,38.0,12,00,000,39.9,04,00,000,44.4*79
[09-35-42-340]:$GLGSV,2,1,05,65,00,000,47.6,84,00,000,47.3,83,00,000,49.9,81,00,000,49.5*67
[09-35-42-341]:$GLGSV,2,2,05,66,00,000,52.8,,,,,,,,,,,,*41
[09-35-42-341]:$BDGSV,4,1,16,01,00,000,42.3,02,00,000,42.2,03,00,000,44.0,04,00,000,38.9*6D
[09-35-42-341]:$BDGSV,4,2,16,05,00,000,38.6,18,00,000,44.2,06,00,000,45.7,16,00,000,45.4*68
[09-35-42-341]:$BDGSV,4,3,16,08,00,000,45.7,09,00,000,42.5,29,00,000,50.2,19,00,000,50.8*65
[09-35-42-341]:$BDGSV,4,4,16,20,00,000,47.0,13,00,000,46.1,22,00,000,47.1,30,00,000,37.0*6A
[09-35-42-341]:$--GGA,013609.00,,,,,0,0,,,,,,,*62
[09-35-42-342]:$GPGSV,3,1,12,13,00,000,47.4,02,00,000,48.0,15,00,000,44.4,05,00,000,50.1*72
[09-35-42-342]:$GPGSV,3,2,12,06,00,000,42.2,07,00,000,38.7,25,00,000,39.0,29,00,000,44.9*7D
[09-35-42-342]:$GPGSV,3,3,12,30,00,000,41.0,19,00,000,37.6,12,00,000,40.5,04,00,000,43.8*7F
[09-35-42-342]:$GLGSV,2,1,05,65,00,000,48.4,84,00,000,47.4,83,00,000,50.9,81,00,000,49.5*65
[09-35-42-342]:$GLGSV,2,2,05,66,00,000,53.6,,,,,,,,,,,,*4E
[09-35-42-342]:$BDGSV,4,1,16,01,00,000,43.2,02,00,000,42.0,03,00,000,45.2,04,00,000,38.3*66
[09-35-42-343]:$BDGSV,4,2,16,05,00,000,38.8,18,00,000,44.2,06,00,000,45.1,16,00,000,45.7*63
[09-35-42-343]:$BDGSV,4,3,16,08,00,000,45.7,09,00,000,42.8,29,00,000,50.2,19,00,000,50.7*67
[09-35-42-343]:$BDGSV,4,4,16,20,00,000,46.7,13,00,000,45.7,22,00,000,47.2,30,00,000,36.8*63
[09-35-42-343]:$--GGA,013610.00,,,,,0,0,,,,,,,*6A
[09-35-42-343]:$GPGSV,3,1,12,13,00,000,47.7,02,00,000,48.3,15,00,000,43.6,05,00,000,49.5*7B
[09-35-42-343]:$GPGSV,3,2,12,06,00,000,41.7,07,00,000,39.4,25,00,000,39.0,29,00,000,45.5*74
[09-35-42-344]:$GPGSV,3,3,12,30,00,000,40.3,19,00,000,36.9,12,00,000,40.7,04,00,000,44.4*7A
[09-35-42-344]:$GLGSV,2,1,05,65,00,000,48.3,88,00,000,47.6,87,00,000,51.1,81,00,000,50.4*68
[09-35-42-344]:$GLGSV,2,2,05,66,00,000,53.1,,,,,,,,,,,,*49
[09-35-42-344]:$BDGSV,4,1,16,01,00,000,43.0,02,00,000,41.4,03,00,000,45.0,04,00,000,38.6*64
[09-35-42-344]:$BDGSV,4,2,16,05,00,000,39.3,18,00,000,43.8,06,00,000,44.4,16,00,000,45.2*65
[09-35-42-344]:$BDGSV,4,3,16,08,00,000,45.1,09,00,000,42.6,29,00,000,50.1,19,00,000,50.8*63
[09-35-42-345]:$BDGSV,4,4,16,20,00,000,46.5,13,00,000,46.2,22,00,000,47.4,30,00,000,37.4*6C
[09-35-42-345]:$--GGA,013611.00,,,,,0,0,,,,,,,*6B
[09-35-42-346]:$GPGSV,3,1,12,13,00,000,47.4,02,00,000,47.7,15,00,000,44.4,05,00,000,49.4*77
[09-35-42-346]:$GPGSV,3,2,12,06,00,000,42.1,07,00,000,39.0,25,00,000,38.7,29,00,000,45.4*72
[09-35-42-346]:$GPGSV,3,3,12,30,00,000,40.3,19,00,000,37.0,12,00,000,40.5,04,00,000,44.0*74
[09-35-42-346]:$GLGSV,2,1,05,65,00,000,48.2,88,00,000,47.7,87,00,000,50.5,81,00,000,49.9*68
[09-35-42-347]:$GLGSV,2,2,05,66,00,000,53.7,,,,,,,,,,,,*4F
[09-35-42-347]:$BDGSV,4,1,16,01,00,000,45.4,02,00,000,41.2,03,00,000,45.6,04,00,000,39.3*62
[09-35-42-347]:$BDGSV,4,2,16,05,00,000,37.4,18,00,000,43.8,06,00,000,45.3,16,00,000,45.4*6C
[09-35-42-347]:$BDGSV,4,3,16,08,00,000,45.3,09,00,000,42.9,29,00,000,49.8,19,00,000,50.7*60
[09-35-42-347]:$BDGSV,4,4,16,20,00,000,46.7,13,00,000,46.5,22,00,000,47.1,30,00,000,36.6*6F
[09-35-42-348]:$--GGA,013612.00,,,,,0,0,,,,,,,*68
[09-35-43-087]:$GPGSV,3,1,12,13,00,000,47.7,02,00,000,47.2,15,00,000,43.7,05,00,000,48.9*79
[09-35-43-103]:$GPGSV,3,2,12,06,00,000,41.9,07,00,000,39.5,25,00,000,38.4,29,00,000,45.5*7E
[09-35-43-104]:$GPGSV,3,3,12,30,00,000,40.8,19,00,000,36.6,12,00,000,40.7,04,00,000,43.8*75
[09-35-43-120]:$GLGSV,2,1,05,65,00,000,47.7,88,00,000,48.2,87,00,000,50.8,81,00,000,49.5*69
[09-35-43-120]:$GLGSV,2,2,05,66,00,000,53.5,,,,,,,,,,,,*4D
[09-35-43-120]:$BDGSV,4,1,16,01,00,000,44.2,02,00,000,40.8,03,00,000,44.2,04,00,000,37.8*6E
[09-35-43-136]:$BDGSV,4,2,16,05,00,000,38.7,18,00,000,43.8,06,00,000,44.7,16,00,000,45.2*63
[09-35-43-136]:$BDGSV,4,3,16,08,00,000,45.3,09,00,000,42.7,29,00,000,49.7,19,00,000,50.8*6E
[09-35-43-151]:$BDGSV,4,4,16,20,00,000,46.9,13,00,000,45.2,22,00,000,47.0,30,00,000,37.4*67
[09-35-43-187]:$--GGA,013613.00,,,,,0,0,,,,,,,*69
[09-35-44-084]:$GPGSV,3,1,12,13,00,000,47.9,02,00,000,47.5,15,00,000,44.5,05,00,000,49.2*7F
[09-35-44-100]:$GPGSV,3,2,12,06,00,000,41.3,07,00,000,39.4,25,00,000,38.6,29,00,000,45.1*73
[09-35-44-100]:$GPGSV,3,3,12,30,00,000,40.6,19,00,000,37.3,12,00,000,40.9,04,00,000,43.5*7C
[09-35-44-115]:$GLGSV,2,1,05,65,00,000,48.2,88,00,000,47.7,87,00,000,50.1,81,00,000,49.7*62
[09-35-44-116]:$GLGSV,2,2,05,66,00,000,53.2,,,,,,,,,,,,*4A
[09-35-44-132]:$BDGSV,4,1,16,01,00,000,44.0,02,00,000,41.1,03,00,000,45.8,04,00,000,39.0*69
[09-35-44-132]:$BDGSV,4,2,16,05,00,000,38.4,18,00,000,44.5,06,00,000,44.7,16,00,000,45.7*6F
[09-35-44-133]:$BDGSV,4,3,16,08,00,000,45.6,09,00,000,42.2,29,00,000,49.8,19,00,000,50.8*61
[09-35-44-150]:$BDGSV,4,4,16,20,00,000,46.7,13,00,000,45.4,22,00,000,47.5,30,00,000,37.0*6E
[09-35-44-197]:$GNGGA,013614.00,2814.1139174,N,11252.1622500,E,1,6,3.8,120.6369,M,0.000,M,,*47
[09-35-45-106]:$GPGSV,3,1,12,13,00,000,47.8,02,00,000,48.6,15,00,000,44.8,05,00,000,49.5*78
[09-35-45-106]:$GPGSV,3,2,12,06,00,000,41.6,07,00,000,39.9,25,00,000,38.6,29,00,000,46.3*7A
[09-35-45-112]:$GPGSV,3,3,12,30,00,000,41.5,19,00,000,36.9,12,00,000,40.6,04,00,000,44.1*79
[09-35-45-124]:$GLGSV,2,1,05,65,42,022,47.7,88,71,047,47.5,87,38,125,50.5,81,00,000,50.0*6F
[09-35-45-125]:$GLGSV,2,2,05,66,00,000,53.2,,,,,,,,,,,,*4A
[09-35-45-136]:$BDGSV,4,1,16,01,45,133,44.4,02,45,230,41.1,03,57,184,43.5,04,00,000,40.3*64
[09-35-45-136]:$BDGSV,4,2,16,05,00,000,38.2,18,00,000,44.3,06,00,000,44.8,16,00,000,45.7*60
[09-35-45-140]:$BDGSV,4,3,16,08,00,000,45.8,09,00,000,42.4,29,00,000,50.0,19,00,000,50.9*68
[09-35-45-161]:$BDGSV,4,4,16,20,00,000,46.9,13,00,000,45.3,22,00,000,47.3,30,00,000,36.9*69
[09-35-45-204]:$GNGGA,013615.00,2814.1142551,N,11252.1621450,E,1,9,2.2,119.7134,M,0.000,M,,*4B
[09-35-46-095]:$GPGSV,3,1,12,13,00,000,46.5,02,00,000,47.5,15,00,000,42.7,05,00,000,49.8*7C
[09-35-46-115]:$GPGSV,3,2,12,06,00,000,41.6,07,00,000,39.1,25,00,000,38.4,29,00,000,44.6*77
[09-35-46-116]:$GPGSV,3,3,12,30,00,000,41.1,19,00,000,36.7,12,00,000,40.2,04,00,000,43.8*79
[09-35-46-116]:$GLGSV,2,1,05,65,42,022,47.5,88,71,047,47.1,87,38,125,49.5,81,00,000,49.3*6A
[09-35-46-127]:$GLGSV,2,2,05,66,00,000,51.6,,,,,,,,,,,,*4C
[09-35-46-127]:$BDGSV,4,1,16,01,45,133,41.6,02,45,230,41.0,03,57,184,43.6,04,29,113,38.7*62
[09-35-46-143]:$BDGSV,4,2,16,05,23,252,38.3,18,00,000,43.8,06,00,000,44.2,16,00,000,45.1*65
[09-35-46-144]:$BDGSV,4,3,16,08,00,000,45.1,09,00,000,42.7,29,00,000,49.1,19,00,000,50.0*62
[09-35-46-158]:$BDGSV,4,4,16,20,00,000,46.5,13,57,347,45.4,22,00,000,46.8,30,00,000,37.1*63
[09-35-46-214]:$GNGGA,013616.00,2814.1139904,N,11252.1630506,E,1,14,1.6,119.3799,M,0.000,M,,*74
[09-35-50-891]:$GPGSV,3,1,12,13,00,000,47.0,02,00,000,48.2,15,00,000,43.9,05,00,000,49.4*73
[09-35-50-891]:$GPGSV,3,2,12,06,00,000,40.9,07,00,000,38.5,25,00,000,38.2,29,00,000,45.3*7E
[09-35-50-892]:$GPGSV,3,3,12,30,00,000,40.3,19,00,000,36.3,12,00,000,40.3,04,00,000,43.7*70
[09-35-50-892]:$GLGSV,2,1,05,65,42,022,47.4,88,71,047,46.7,87,38,125,48.3,81,35,336,47.4*62
[09-35-50-892]:$GLGSV,2,2,05,66,00,000,51.9,,,,,,,,,,,,*43
[09-35-50-892]:$BDGSV,4,1,16,01,45,133,43.7,02,45,230,42.7,03,57,184,42.4,04,29,113,40.2*6C
[09-35-50-893]:$BDGSV,4,2,16,05,23,252,41.3,18,00,000,44.6,06,00,000,44.4,16,55,179,44.9*62
[09-35-50-893]:$BDGSV,4,3,16,08,00,000,45.3,09,00,000,42.0,29,00,000,48.9,19,76,318,49.5*68
[09-35-50-893]:$BDGSV,4,4,16,20,34,038,45.9,13,57,347,45.8,22,32,239,46.3,30,00,000,37.2*6D
[09-35-50-893]:$GNGGA,013617.00,2814.1144776,N,11252.1625833,E,1,12,1.7,116.7289,M,0.000,M,,*73
[09-35-50-894]:$GPGSV,3,1,12,13,00,000,47.2,02,00,000,48.9,15,00,000,43.4,05,00,000,49.3*70
[09-35-50-894]:$GPGSV,3,2,12,06,00,000,41.0,07,00,000,38.9,25,00,000,38.6,29,00,000,44.4*78
[09-35-50-894]:$GPGSV,3,3,12,30,00,000,40.0,19,00,000,36.7,12,00,000,40.0,04,00,000,43.7*74
[09-35-50-895]:$GLGSV,2,1,05,65,42,022,48.0,88,71,047,47.4,87,00,000,50.4,81,00,000,50.6*6C
[09-35-50-895]:$GLGSV,2,2,05,66,00,000,52.9,,,,,,,,,,,,*40
[09-35-50-895]:$BDGSV,4,1,16,01,45,133,45.0,02,45,230,41.1,03,57,184,44.4,04,29,113,41.0*6D
[09-35-50-896]:$BDGSV,4,2,16,05,23,252,39.2,18,00,000,44.5,06,00,000,44.7,16,55,179,45.5*61
[09-35-50-896]:$BDGSV,4,3,16,08,00,000,45.3,09,00,000,42.3,29,00,000,49.7,19,76,318,50.0*69
[09-35-50-896]:$BDGSV,4,4,16,20,34,038,47.2,13,57,347,46.6,22,32,239,46.9,30,00,000,37.3*62
[09-35-50-897]:$GNGGA,013618.00,2814.1146082,N,11252.1625916,E,1,15,1.6,116.6139,M,0.000,M,,*7B
[09-35-50-897]:$GPGSV,3,1,12,13,00,000,47.4,02,00,000,48.8,15,00,000,44.5,05,00,000,49.4*76
[09-35-50-898]:$GPGSV,3,2,12,06,00,000,41.6,07,00,000,37.7,25,00,000,39.2,29,00,000,45.0*7F
[09-35-50-898]:$GPGSV,3,3,12,30,00,000,40.5,19,00,000,36.9,12,00,000,40.6,04,00,000,43.9*77
[09-35-50-898]:$GLGSV,2,1,05,65,42,022,48.1,88,71,047,46.9,87,00,000,50.1,81,00,000,48.7*6C
[09-35-50-898]:$GLGSV,2,2,05,66,00,000,52.9,,,,,,,,,,,,*40
[09-35-50-898]:$BDGSV,4,1,16,01,45,133,43.7,02,45,230,41.3,03,57,184,44.4,04,29,113,39.1*60
[09-35-50-900]:$BDGSV,4,2,16,05,23,252,40.0,18,00,000,43.6,06,60,168,44.9,16,55,179,45.2*69
[09-35-50-900]:$BDGSV,4,3,16,08,60,044,45.0,09,34,192,42.2,29,00,000,49.8,19,76,318,50.3*6C
[09-35-50-901]:$BDGSV,4,4,16,20,34,038,47.2,13,57,348,46.4,22,32,239,47.0,30,00,000,37.4*60
[09-35-50-901]:$GNGGA,013619.00,2814.1146055,N,11252.1625926,E,1,15,1.6,116.5878,M,0.000,M,,*7C
[09-35-50-901]:$GPGSV,3,1,12,13,00,000,47.3,02,00,000,48.6,15,00,000,44.3,05,00,000,49.6*7B
[09-35-50-901]:$GPGSV,3,2,12,06,00,000,41.8,07,00,000,38.7,25,00,000,38.7,29,00,000,45.1*7B
[09-35-50-902]:$GPGSV,3,3,12,30,00,000,40.6,19,00,000,37.6,12,00,000,40.3,04,00,000,44.4*75
[09-35-50-902]:$GLGSV,2,1,05,65,42,022,48.1,88,71,047,47.4,87,00,000,50.5,81,00,000,50.7*6D
[09-35-50-902]:$GLGSV,2,2,05,66,00,000,53.4,,,,,,,,,,,,*4C
[09-35-50-902]:$BDGSV,4,1,16,01,45,133,43.7,02,45,230,41.2,03,57,184,44.6,04,29,113,38.7*64
[09-35-50-902]:$BDGSV,4,2,16,05,23,252,39.5,18,00,000,44.5,06,60,168,45.1,16,55,179,45.3*6E
[09-35-50-903]:$BDGSV,4,3,16,08,60,044,45.7,09,34,192,42.7,29,00,000,49.9,19,76,318,51.2*6F
[09-35-50-903]:$BDGSV,4,4,16,20,34,038,47.1,13,57,348,46.4,22,32,239,47.5,30,00,000,37.2*60
[09-35-50-904]:$GNGGA,013620.00,2814.1146048,N,11252.1625939,E,1,15,1.6,116.5682,M,0.000,M,,*7F
[09-35-51-106]:$GPGSV,3,1,12,13,00,000,46.4,02,00,000,48.3,15,00,000,44.6,05,00,000,49.3*78
[09-35-51-106]:$GPGSV,3,2,12,06,00,000,41.7,07,00,000,38.2,25,00,000,38.5,29,00,000,44.4*77
[09-35-51-107]:$GPGSV,3,3,12,30,00,000,40.7,19,00,000,36.4,12,00,000,40.3,04,00,000,44.0*73
[09-35-51-127]:$GLGSV,2,1,05,65,42,022,48.0,88,71,047,47.5,87,00,000,50.6,81,00,000,50.0*69
[09-35-51-128]:$GLGSV,2,2,05,66,00,000,53.3,,,,,,,,,,,,*4B
[09-35-51-141]:$BDGSV,4,1,16,01,45,133,43.7,02,45,230,43.1,03,57,184,45.1,04,29,113,39.5*60
[09-35-51-142]:$BDGSV,4,2,16,05,23,252,40.5,18,00,000,44.3,06,60,168,45.0,16,55,179,45.3*67
[09-35-51-143]:$BDGSV,4,3,16,08,60,044,45.5,09,34,192,42.0,29,00,000,50.2,19,76,318,50.9*63
[09-35-51-154]:$BDGSV,4,4,16,20,34,038,47.0,13,57,348,46.5,22,32,239,47.8,30,00,000,36.9*67
[09-35-51-202]:$GNGGA,013621.00,2814.1151685,N,11252.1612677,E,1,18,1.4,122.9902,M,0.000,M,,*7D
[09-35-52-094]:$GPGSV,3,1,12,13,00,000,46.9,02,61,050,48.4,15,00,000,44.6,05,63,326,49.1*70
[09-35-52-111]:$GPGSV,3,2,12,06,26,094,41.7,07,03,069,38.9,25,00,000,38.2,29,00,000,44.6*7C
[09-35-52-111]:$GPGSV,3,3,12,30,00,000,39.8,19,00,000,36.7,12,00,000,40.3,04,00,000,43.8*7E
[09-35-52-127]:$GLGSV,2,1,05,65,42,022,48.1,88,71,047,47.5,87,00,000,50.1,81,00,000,49.7*60
[09-35-52-127]:$GLGSV,2,2,05,66,00,000,53.4,,,,,,,,,,,,*4C
[09-35-52-128]:$BDGSV,4,1,16,01,45,133,41.9,02,45,230,42.1,03,57,184,43.8,04,29,113,39.6*61
[09-35-52-143]:$BDGSV,4,2,16,05,23,252,39.8,18,00,000,44.3,06,60,168,44.8,16,55,179,45.4*6A
[09-35-52-144]:$BDGSV,4,3,16,08,60,044,45.3,09,34,192,42.5,29,00,000,49.8,19,76,318,51.2*68
[09-35-52-158]:$BDGSV,4,4,16,20,34,038,47.2,13,57,348,45.9,22,32,239,47.3,30,00,000,37.3*6A
[09-35-52-213]:$GNGGA,013622.00,2814.1146715,N,11252.1604152,E,1,19,1.3,118.9917,M,0.000,M,,*7C
[09-35-53-106]:$GPGSV,3,1,12,13,00,000,46.8,02,61,050,48.4,15,00,000,43.4,05,63,326,49.5*70
[09-35-53-107]:$GPGSV,3,2,12,06,26,094,41.6,07,03,069,38.6,25,00,000,38.8,29,00,000,44.4*7A
[09-35-53-107]:$GPGSV,3,3,12,30,00,000,40.6,19,00,000,36.9,12,16,226,40.6,04,00,000,43.7*7B
[09-35-53-123]:$GLGSV,2,1,05,65,42,022,47.9,88,71,047,47.5,87,00,000,51.1,81,00,000,50.2*6B
[09-35-53-124]:$GLGSV,2,2,05,66,00,000,53.5,,,,,,,,,,,,*4D
[09-35-53-139]:$BDGSV,4,1,16,01,45,133,44.8,02,45,230,41.2,03,57,184,45.1,04,29,113,42.0*60
[09-35-53-139]:$BDGSV,4,2,16,05,23,252,40.3,18,00,000,44.4,06,60,168,44.5,16,55,179,45.5*64
[09-35-53-140]:$BDGSV,4,3,16,08,60,044,45.6,09,34,192,42.1,29,00,000,49.6,19,76,318,50.6*62
[09-35-53-154]:$BDGSV,4,4,16,20,34,038,47.2,13,57,348,45.7,22,32,239,47.6,30,00,000,36.5*66
[09-35-53-202]:$GNGGA,013623.00,2814.1144696,N,11252.1604866,E,1,20,1.3,119.4014,M,0.000,M,,*77
[09-35-54-094]:$GPGSV,3,1,12,13,00,000,46.5,02,61,050,48.6,15,00,000,44.3,05,63,326,49.4*7E
[09-35-54-110]:$GPGSV,3,2,12,06,26,094,41.8,07,03,069,38.5,25,00,000,39.5,29,00,000,44.7*78
[09-35-54-110]:RTC Time is 2019-11-07 5 01:36:24
[09-35-54-110]:$GPGSV,3,3,12,30,00,000,40.7,19,00,000,37.0,12,16,226,40.0,04,00,000,43.8*7B
[09-35-54-127]:$GLGSV,2,1,05,65,42,022,47.9,88,71,047,47.8,87,38,125,50.3,81,00,000,49.7*65
[09-35-54-128]:$GLGSV,2,2,05,66,00,000,53.9,,,,,,,,,,,,*41
[09-35-54-142]:$BDGSV,4,1,16,01,45,133,44.5,02,45,230,43.0,03,57,184,42.8,04,29,113,39.6*69
[09-35-54-143]:$BDGSV,4,2,16,05,23,252,39.7,18,00,000,43.7,06,60,168,44.4,16,55,179,45.2*6C
[09-35-54-143]:$BDGSV,4,3,16,08,60,044,45.5,09,34,192,42.5,29,00,000,50.3,19,76,318,50.7*69
[09-35-54-163]:$BDGSV,4,4,16,20,34,038,46.3,13,57,348,46.3,22,32,239,47.0,30,00,000,36.7*65
[09-35-54-212]:$GNGGA,013624.00,2814.1146867,N,11252.1604264,E,1,19,1.3,118.9913,M,0.000,M,,*72
[09-35-55-105]:$GPGSV,3,1,12,13,00,000,46.9,02,61,050,48.3,15,00,000,43.6,05,63,326,49.4*75
[09-35-55-105]:$GPGSV,3,2,12,06,26,094,41.5,07,03,069,39.3,25,00,000,38.0,29,00,000,45.1*71
[09-35-55-106]:$GPGSV,3,3,12,30,00,000,40.5,19,00,000,36.9,12,16,226,39.6,04,00,000,43.9*78
[09-35-55-123]:$GLGSV,2,1,05,65,42,022,48.0,88,71,047,47.5,87,00,000,50.7,81,00,000,49.9*69
[09-35-55-124]:$GLGSV,2,2,05,66,00,000,53.4,,,,,,,,,,,,*4C
[09-35-55-138]:$BDGSV,4,1,16,01,45,133,44.0,02,45,230,41.9,03,57,184,43.8,04,29,113,38.7*66
[09-35-55-139]:$BDGSV,4,2,16,05,23,252,38.8,18,00,000,42.6,06,60,168,44.6,16,55,179,45.2*60
[09-35-55-140]:$BDGSV,4,3,16,08,60,044,45.4,09,34,192,41.9,29,00,000,49.8,19,76,318,51.0*62
[09-35-55-161]:$BDGSV,4,4,16,20,34,038,47.2,13,57,348,46.6,22,32,240,47.6,30,00,000,36.8*67
[09-35-55-202]:$GNGGA,013625.00,2814.1146934,N,11252.1604269,E,1,19,1.3,119.0040,M,0.000,M,,*7E
[09-35-56-094]:$GPGSV,3,1,12,13,00,000,46.6,02,61,050,47.8,15,00,000,43.8,05,63,326,49.0*74
[09-35-56-110]:$GPGSV,3,2,12,06,26,094,41.5,07,03,069,38.8,25,00,000,39.0,29,00,000,44.2*78
[09-35-56-110]:$GPGSV,3,3,12,30,00,000,40.7,19,00,000,37.3,12,16,226,39.8,04,00,000,43.6*70
[09-35-56-114]:$GLGSV,2,1,05,65,42,022,47.5,88,71,047,46.7,87,00,000,49.3,81,00,000,49.2*67
[09-35-56-130]:$GLGSV,2,2,05,66,00,000,51.4,,,,,,,,,,,,*4E
[09-35-56-131]:$BDGSV,4,1,16,01,45,133,42.4,02,45,230,41.0,03,57,184,42.3,04,29,113,39.6*67
[09-35-56-146]:$BDGSV,4,2,16,05,23,252,39.2,18,00,000,43.7,06,60,168,44.4,16,55,179,45.3*68
[09-35-56-146]:$BDGSV,4,3,16,08,60,044,45.0,09,34,192,41.4,29,00,000,49.3,19,76,318,49.6*6F
[09-35-56-147]:$BDGSV,4,4,16,20,34,038,46.3,13,57,348,46.2,22,32,240,46.7,30,00,000,36.3*68
[09-35-56-210]:$GNGGA,013626.00,2814.1146941,N,11252.1604269,E,1,19,1.3,119.0043,M,0.000,M,,*7C
[09-35-57-107]:$GPGSV,3,1,12,13,00,000,47.3,02,61,050,47.5,15,00,000,44.1,05,63,326,48.6*74
[09-35-57-107]:$GPGSV,3,2,12,06,26,094,41.2,07,03,068,38.5,25,00,000,38.4,29,00,000,44.2*76
[09-35-57-107]:$GPGSV,3,3,12,30,00,000,40.4,19,00,000,37.0,12,16,226,39.2,04,00,000,43.8*74
[09-35-57-125]:$GLGSV,2,1,05,65,42,022,46.8,88,71,047,46.2,87,00,000,48.5,81,00,000,47.1*64
[09-35-57-125]:$GLGSV,2,2,05,66,00,000,51.4,,,,,,,,,,,,*4E
[09-35-57-142]:$BDGSV,4,1,16,01,45,133,42.8,02,45,230,42.7,03,57,184,43.6,04,29,113,39.1*6C
[09-35-57-142]:$BDGSV,4,2,16,05,23,252,37.7,18,00,000,42.6,06,60,168,44.9,16,55,179,44.5*69
[09-35-57-143]:$BDGSV,4,3,16,08,60,044,45.0,09,34,192,42.3,29,00,000,48.9,19,76,318,49.6*60
[09-35-57-156]:$BDGSV,4,4,16,20,34,038,46.0,13,57,348,45.8,22,32,240,46.3,30,00,000,36.7*62
[09-35-57-202]:$GNGGA,013627.00,2814.1146974,N,11252.1604299,E,1,19,1.3,118.9964,M,0.000,M,,*70
[09-35-58-093]:$GPGSV,3,1,12,13,00,000,47.1,02,61,050,47.6,15,00,000,44.4,05,63,326,49.8*7F
[09-35-58-110]:$GPGSV,3,2,12,06,26,094,41.5,07,03,068,39.0,25,00,000,38.4,29,00,000,44.8*7F
[09-35-58-110]:$GPGSV,3,3,12,30,00,000,40.3,19,00,000,36.5,12,16,226,40.8,04,00,000,43.8*73
[09-35-58-126]:$GLGSV,2,1,05,65,42,022,48.5,88,71,047,47.1,87,00,000,50.1,81,00,000,50.4*6B
[09-35-58-126]:$GLGSV,2,2,05,66,00,000,53.0,,,,,,,,,,,,*48
[09-35-58-126]:$BDGSV,4,1,16,01,45,133,43.0,02,45,230,41.6,03,57,184,46.2,04,29,113,37.7*6E
[09-35-58-143]:$BDGSV,4,2,16,05,23,252,39.7,18,00,000,43.3,06,60,168,45.1,16,55,179,45.2*6C
[09-35-58-144]:$BDGSV,4,3,16,08,60,044,45.4,09,34,192,42.3,29,00,000,49.7,19,76,318,50.2*67
[09-35-58-158]:$BDGSV,4,4,16,20,34,038,47.0,13,57,348,46.5,22,32,240,47.2,30,00,000,36.8*62
[09-35-58-212]:$GNGGA,013628.00,2814.1147022,N,11252.1604344,E,1,19,1.3,118.9739,M,0.000,M,,*73
[09-35-59-102]:$GPGSV,3,1,12,13,00,000,47.4,02,61,050,48.4,15,00,000,44.2,05,63,326,49.0*79
[09-35-59-102]:$GPGSV,3,2,12,06,26,094,41.6,07,03,068,39.2,25,00,000,38.5,29,00,000,45.2*74
[09-35-59-106]:$GPGSV,3,3,12,30,00,000,40.7,19,00,000,36.6,12,16,226,40.3,04,00,000,44.2*72
[09-35-59-118]:$GLGSV,2,1,05,65,42,022,47.9,88,71,047,47.0,87,00,000,49.6,81,00,000,49.4*6E
[09-35-59-118]:$GLGSV,2,2,05,66,00,000,52.8,,,,,,,,,,,,*41
[09-35-59-134]:$BDGSV,4,1,16,01,45,133,43.5,02,45,230,42.5,03,57,184,45.8,04,29,113,39.2*69
[09-35-59-134]:$BDGSV,4,2,16,05,23,252,39.3,18,00,000,45.0,06,60,168,44.7,16,55,179,46.3*68
[09-35-59-137]:$BDGSV,4,3,16,08,60,044,46.0,09,34,192,41.9,29,00,000,50.0,19,76,318,50.3*67
[09-35-59-155]:$BDGSV,4,4,16,20,34,038,46.8,13,57,348,46.4,22,32,240,46.7,30,00,000,37.1*66
[09-35-59-202]:$GNGGA,013629.00,2814.1147089,N,11252.1604329,E,1,19,1.3,118.9483,M,0.000,M,,*7A
[09-36-00-093]:$GPGSV,3,1,12,13,00,000,46.8,02,61,050,48.3,15,00,000,43.8,05,63,326,49.0*7E
[09-36-00-110]:$GPGSV,3,2,12,06,26,094,41.8,07,03,068,39.1,25,00,000,39.8,29,00,000,44.7*71
[09-36-00-111]:$GPGSV,3,3,12,30,00,000,40.7,19,00,000,37.5,12,16,226,40.1,04,00,000,44.4*74
[09-36-00-119]:$GLGSV,2,1,05,65,42,022,48.0,88,71,047,47.6,87,00,000,50.2,81,00,000,50.0*6E
[09-36-00-129]:$GLGSV,2,2,05,66,00,000,53.2,,,,,,,,,,,,*4A
[09-36-00-130]:$BDGSV,4,1,16,01,45,133,43.0,02,45,230,43.3,03,57,184,43.0,04,29,113,38.6*60
[09-36-00-145]:$BDGSV,4,2,16,05,23,252,39.1,18,00,000,45.2,06,60,168,45.3,16,55,179,45.6*6B
[09-36-00-146]:$BDGSV,4,3,16,08,60,044,45.3,09,34,192,42.1,29,00,000,49.9,19,76,318,50.9*67
[09-36-00-146]:$BDGSV,4,4,16,20,34,038,47.2,13,57,348,46.5,22,32,240,46.7,30,00,000,36.9*65
[09-36-00-210]:$GNGGA,013630.00,2814.1145181,N,11252.1604931,E,1,20,1.3,119.4289,M,0.000,M,,*70
[09-36-01-108]:$GPGSV,3,1,12,13,00,000,47.3,02,61,050,48.0,15,00,000,43.3,05,63,326,49.4*78
[09-36-01-108]:$GPGSV,3,2,12,06,26,094,41.8,07,03,068,38.4,25,00,000,39.8,29,00,000,44.2*70
[09-36-01-109]:$GPGSV,3,3,12,30,00,000,41.2,19,00,000,36.6,12,16,226,40.3,04,00,000,44.0*74
[09-36-01-118]:$GLGSV,2,1,05,65,42,022,48.2,88,71,047,48.3,87,38,125,50.5,81,00,000,50.4*68
[09-36-01-119]:$GLGSV,2,2,05,66,00,000,53.1,,,,,,,,,,,,*49
[09-36-01-134]:$BDGSV,4,1,16,01,45,133,43.7,02,45,230,41.8,03,57,184,43.5,04,29,113,38.7*6A
[09-36-01-135]:$BDGSV,4,2,16,05,23,252,39.0,18,00,000,44.1,06,60,168,44.9,16,55,179,45.3*66
[09-36-01-155]:$BDGSV,4,3,16,08,60,044,46.0,09,34,192,42.6,29,00,000,49.5,19,76,318,50.6*63
[09-36-01-156]:$BDGSV,4,4,16,20,34,038,47.0,13,57,348,46.0,22,32,240,47.0,30,00,000,36.6*6B
[09-36-01-260]:$GNGGA,013631.00,2814.1147228,N,11252.1604450,E,1,19,1.3,118.9846,M,0.000,M,,*76
[09-36-02-094]:$GPGSV,3,1,12,13,00,000,47.2,02,61,050,48.3,15,00,000,43.2,05,63,326,49.5*7A
[09-36-02-110]:$GPGSV,3,2,12,06,26,094,41.7,07,03,068,38.9,25,00,000,39.2,29,00,000,44.7*7D
[09-36-02-111]:$GPGSV,3,3,12,30,00,000,40.8,19,00,000,37.3,12,16,226,40.2,04,00,000,44.2*78
[09-36-02-118]:$GLGSV,2,1,05,65,42,022,48.2,88,71,047,46.9,87,00,000,50.5,81,00,000,49.8*65
[09-36-02-127]:$GLGSV,2,2,05,66,00,000,53.6,,,,,,,,,,,,*4E
[09-36-02-128]:$BDGSV,4,1,16,01,45,133,45.4,02,45,230,41.2,03,57,184,45.1,04,29,113,40.0*6F
[09-36-02-148]:$BDGSV,4,2,16,05,23,252,39.9,18,00,000,45.3,06,60,168,45.0,16,55,179,45.0*67
[09-36-02-148]:$BDGSV,4,3,16,08,60,044,45.4,09,34,192,42.5,29,00,000,50.0,19,76,318,50.8*64
[09-36-02-148]:$BDGSV,4,4,16,20,34,038,46.6,13,57,348,46.4,22,32,240,47.8,30,00,000,36.4*62
[09-36-02-211]:$GNGGA,013632.00,2814.1139255,N,11252.1606793,E,1,22,1.2,117.3129,M,0.000,M,,*74
[09-36-03-380]:$GPGSV,3,1,12,13,45,170,47.2,02,61,050,48.5,15,21,204,43.6,05,63,326,49.6*79
[09-36-03-381]:$GPGSV,3,2,12,06,26,094,41.9,07,03,068,38.5,25,00,000,39.3,29,00,000,44.6*7F
[09-36-03-381]:$GPGSV,3,3,12,30,00,000,40.7,19,12,150,36.6,12,16,226,39.8,04,00,000,43.9*7C
[09-36-03-381]:$GLGSV,2,1,05,65,42,022,47.6,88,71,047,47.6,87,00,000,50.5,81,00,000,49.9*61
[09-36-03-381]:$GLGSV,2,2,05,66,00,000,53.9,,,,,,,,,,,,*41
[09-36-03-381]:$BDGSV,4,1,16,01,45,133,43.2,02,45,230,41.1,03,57,184,45.2,04,29,113,39.4*65
[09-36-03-381]:$BDGSV,4,2,16,05,23,252,39.4,18,00,000,43.6,06,60,168,44.5,16,55,179,45.3*6E
[09-36-03-382]:$BDGSV,4,3,16,08,60,044,45.8,09,34,192,42.5,29,00,000,49.9,19,76,318,50.8*69
[09-36-03-382]:$BDGSV,4,4,16,20,34,038,46.5,13,57,348,46.4,22,32,240,46.7,30,00,000,36.5*6E
[09-36-03-382]:$GNGGA,013633.00,2814.1132379,N,11252.1611634,E,1,25,1.0,124.6308,M,0.000,M,,*7A
[09-36-04-095]:$GPGSV,3,1,12,13,45,170,47.3,02,61,050,48.5,15,21,204,43.6,05,63,326,49.3*7D
[09-36-04-114]:$GPGSV,3,2,12,06,26,094,41.4,07,03,068,39.0,25,13,269,39.6,29,26,319,45.2*76
[09-36-04-115]:$GPGSV,3,3,12,30,07,099,41.3,19,12,150,37.4,12,16,226,40.2,04,00,000,43.8*78
[09-36-04-120]:$GLGSV,2,1,05,65,42,022,48.1,88,71,047,47.9,87,00,000,50.4,81,00,000,49.8*66
[09-36-04-129]:$GLGSV,2,2,05,66,00,000,53.4,,,,,,,,,,,,*4C
[09-36-04-130]:$BDGSV,4,1,16,01,45,133,43.0,02,45,230,43.1,03,57,184,45.3,04,29,113,39.6*66
[09-36-04-147]:$BDGSV,4,2,16,05,23,252,41.6,18,00,000,44.7,06,60,168,44.8,16,55,179,45.2*69
[09-36-04-149]:$BDGSV,4,3,16,08,60,044,45.9,09,34,192,42.7,29,00,000,49.2,19,76,318,50.5*6C
[09-36-04-157]:$BDGSV,4,4,16,20,34,038,47.2,13,57,348,46.7,22,32,240,48.0,30,00,000,36.7*60
[09-36-04-218]:$GNGGA,013634.00,2814.1132475,N,11252.1611625,E,1,25,1.0,124.6300,M,0.000,M,,*7E
[09-36-05-106]:$GPGSV,3,1,12,13,45,170,47.2,02,61,050,48.3,15,21,204,44.0,05,63,326,48.7*7E
[09-36-05-106]:$GPGSV,3,2,12,06,26,094,41.2,07,03,068,38.3,25,13,269,39.7,29,26,318,45.8*78
[09-36-05-108]:$GPGSV,3,3,12,30,07,099,41.1,19,12,150,37.1,12,16,226,39.9,04,00,000,43.6*74
[09-36-05-122]:$GLGSV,2,1,05,65,42,022,47.9,88,71,047,47.6,87,00,000,50.8,81,00,000,50.9*6B
[09-36-05-122]:$GLGSV,2,2,05,66,00,000,53.5,,,,,,,,,,,,*4D
[09-36-05-138]:$BDGSV,4,1,16,01,45,133,43.5,02,45,230,42.3,03,57,184,43.6,04,29,113,39.2*67
[09-36-05-138]:$BDGSV,4,2,16,05,23,252,38.7,18,00,000,43.7,06,60,168,44.9,16,55,179,45.5*67
[09-36-05-138]:$BDGSV,4,3,16,08,60,044,45.7,09,34,192,42.3,29,00,000,50.0,19,76,318,51.0*68
[09-36-05-156]:$BDGSV,4,4,16,20,34,038,47.2,13,57,348,46.4,22,32,240,47.4,30,00,000,37.0*6E
[09-36-05-204]:$GNGGA,013635.00,2814.1132554,N,11252.1611675,E,1,25,1.0,124.6132,M,0.000,M,,*7B
[09-36-06-094]:$GPGSV,3,1,12,13,45,170,46.5,02,61,050,47.7,15,21,204,44.3,05,63,326,47.8*70
[09-36-06-110]:$GPGSV,3,2,12,06,26,094,42.0,07,03,068,37.8,25,13,269,39.1,29,26,318,44.8*7A
[09-36-06-111]:$GPGSV,3,3,12,30,07,099,40.4,19,12,150,37.1,12,16,226,39.6,04,00,000,43.2*7B
[09-36-06-126]:$GLGSV,2,1,05,65,42,022,47.8,88,71,047,45.8,87,00,000,49.5,81,00,000,49.2*60
[09-36-06-126]:$GLGSV,2,2,05,66,00,000,51.6,,,,,,,,,,,,*4C
[09-36-06-127]:$BDGSV,4,1,16,01,45,133,41.9,02,45,230,41.2,03,57,184,43.6,04,29,113,38.1*69
[09-36-06-144]:$BDGSV,4,2,16,05,23,252,38.9,18,00,000,43.4,06,60,168,44.5,16,55,179,44.7*65
[09-36-06-144]:$BDGSV,4,3,16,08,60,044,44.9,09,34,192,41.9,29,00,000,48.7,19,76,318,49.5*6C
[09-36-06-157]:$BDGSV,4,4,16,20,34,038,46.2,13,57,348,45.8,22,32,240,46.5,30,00,000,36.4*65
[09-36-06-212]:$GNGGA,013636.00,2814.1132583,N,11252.1611726,E,1,25,1.0,124.5786,M,0.000,M,,*7F
[09-36-07-102]:$GPGSV,3,1,12,13,45,170,47.1,02,61,050,48.0,15,21,204,43.0,05,63,326,47.9*78
[09-36-07-103]:$GPGSV,3,2,12,06,26,094,41.7,07,03,068,38.4,25,13,269,39.7,29,26,318,44.6*75
[09-36-07-112]:$GPGSV,3,3,12,30,07,099,40.9,19,12,150,36.4,12,16,226,39.9,04,00,000,44.2*7A
[09-36-07-124]:$GLGSV,2,1,05,65,42,022,46.7,88,71,047,46.4,87,00,000,48.0,81,00,000,47.6*6F
[09-36-07-125]:$GLGSV,2,2,05,66,00,000,51.3,,,,,,,,,,,,*49
[09-36-07-139]:$BDGSV,4,1,16,01,45,133,42.7,02,45,230,39.8,03,57,184,42.4,04,29,113,38.5*66
[09-36-07-140]:$BDGSV,4,2,16,05,23,252,39.1,18,00,000,43.9,06,60,168,44.4,16,55,179,44.9*6E
[09-36-07-155]:$BDGSV,4,3,16,08,60,044,45.0,09,34,192,41.9,29,00,000,48.7,19,76,318,49.8*69
[09-36-07-155]:$BDGSV,4,4,16,20,34,038,46.4,13,57,348,46.1,22,32,240,46.7,30,00,000,36.6*69
[09-36-07-203]:$GNGGA,013637.00,2814.1133064,N,11252.1611457,E,1,25,1.1,124.5918,M,0.000,M,,*7E
[09-36-08-094]:$GPGSV,3,1,12,13,45,170,47.9,02,61,050,48.2,15,21,204,44.1,05,63,326,48.7*75
[09-36-08-114]:$GPGSV,3,2,12,06,26,094,42.0,07,03,068,37.4,25,13,269,39.1,29,26,318,44.8*76
[09-36-08-114]:$GPGSV,3,3,12,30,07,099,40.3,19,12,150,36.7,12,16,226,40.4,04,00,000,43.9*7C
[09-36-08-115]:$GLGSV,2,1,05,65,42,022,48.5,88,71,047,47.4,87,38,125,50.2,81,00,000,50.1*65
[09-36-08-126]:$GLGSV,2,2,05,66,00,000,53.1,,,,,,,,,,,,*49
[09-36-08-127]:$BDGSV,4,1,16,01,45,133,43.7,02,45,230,40.5,03,57,184,44.8,04,29,113,40.1*65
[09-36-08-145]:$BDGSV,4,2,16,05,23,252,38.0,18,00,000,44.4,06,60,168,45.1,16,55,179,45.3*6B
[09-36-08-146]:$BDGSV,4,3,16,08,60,044,45.7,09,34,192,42.4,29,00,000,49.5,19,76,318,50.7*64
[09-36-08-155]:$BDGSV,4,4,16,20,34,038,47.0,13,57,348,46.1,22,32,240,47.1,30,00,000,36.2*6F
[09-36-08-210]:$GNGGA,013638.00,2814.1132738,N,11252.1611829,E,1,25,1.0,124.5554,M,0.000,M,,*7E
[09-36-09-102]:$GPGSV,3,1,12,13,45,170,47.6,02,61,050,47.8,15,21,204,43.7,05,63,326,48.8*71
[09-36-09-103]:$GPGSV,3,2,12,06,26,094,42.5,07,03,068,37.4,25,13,269,38.8,29,26,318,45.5*77
[09-36-09-124]:$GPGSV,3,3,12,30,07,099,41.2,19,12,150,37.1,12,16,226,39.8,04,00,000,44.1*76
[09-36-09-124]:$GLGSV,2,1,05,65,42,022,47.9,88,71,047,47.4,87,00,000,49.5,81,00,000,49.6*6B
[09-36-09-124]:$GLGSV,2,2,05,66,00,000,52.8,,,,,,,,,,,,*41
[09-36-09-134]:$BDGSV,4,1,16,01,45,133,43.3,02,45,230,41.4,03,57,184,43.1,04,29,113,38.1*60
[09-36-09-135]:$BDGSV,4,2,16,05,23,252,39.3,18,00,000,44.2,06,60,168,44.6,16,55,179,45.3*69
[09-36-09-154]:$BDGSV,4,3,16,08,60,044,45.2,09,34,192,42.9,29,00,000,50.3,19,76,318,50.5*60
[09-36-09-155]:$BDGSV,4,4,16,20,34,038,47.1,13,57,348,45.2,22,32,240,47.0,30,00,000,36.5*68
[09-36-09-203]:$GNGGA,013639.00,2814.1133540,N,11252.1611358,E,1,26,1.0,124.0848,M,0.000,M,,*78
[09-36-10-093]:$GPGSV,3,1,12,13,45,170,48.2,02,61,050,48.2,15,21,204,44.8,05,63,326,49.8*76
[09-36-10-117]:$GPGSV,3,2,12,06,26,094,41.4,07,03,068,37.1,25,13,269,39.5,29,26,318,45.6*7F
[09-36-10-118]:$GPGSV,3,3,12,30,07,099,40.7,19,12,150,36.5,12,16,226,40.0,04,00,000,43.8*7F
[09-36-10-118]:$GLGSV,2,1,05,65,42,022,48.3,88,71,047,47.2,87,00,000,50.4,81,00,000,50.1*6E
[09-36-10-128]:$GLGSV,2,2,05,66,00,000,53.4,,,,,,,,,,,,*4C
[09-36-10-128]:$BDGSV,4,1,16,01,45,133,43.9,02,45,230,40.5,03,57,184,44.1,04,29,113,38.1*6D
[09-36-10-143]:$BDGSV,4,2,16,05,23,252,38.4,18,00,000,43.0,06,60,168,44.8,16,55,179,45.5*62
[09-36-10-143]:$BDGSV,4,3,16,08,60,044,45.5,09,34,192,42.4,29,64,143,49.6,19,76,318,50.7*61
[09-36-10-146]:$BDGSV,4,4,16,20,34,038,46.6,13,57,348,45.9,22,32,240,47.0,30,00,000,36.5*65
[09-36-10-210]:$GNGGA,013640.00,2814.1133622,N,11252.1611386,E,1,26,1.0,124.0891,M,0.000,M,,*76
[09-36-11-104]:$GPGSV,3,1,12,13,45,170,46.9,02,61,050,48.6,15,21,204,44.9,05,63,326,49.1*7F
[09-36-11-105]:$GPGSV,3,2,12,06,26,094,41.4,07,03,068,37.1,25,13,269,38.2,29,26,318,45.5*7A
[09-36-11-125]:$GPGSV,3,3,12,30,07,099,41.5,19,12,150,37.2,12,16,226,39.7,04,00,000,44.0*7C
[09-36-11-126]:$GLGSV,2,1,05,65,42,022,48.4,88,71,047,47.8,87,00,000,50.6,81,00,000,50.3*63
[09-36-11-126]:$GLGSV,2,2,05,66,00,000,53.5,,,,,,,,,,,,*4D
[09-36-11-136]:$BDGSV,4,1,16,01,45,133,44.8,02,45,230,41.1,03,57,184,43.1,04,29,113,40.2*65
[09-36-11-136]:$BDGSV,4,2,16,05,23,252,37.4,18,00,000,44.4,06,60,168,45.2,16,55,179,45.7*67
[09-36-11-156]:$BDGSV,4,3,16,08,60,044,45.9,09,34,192,42.4,29,64,143,50.0,19,76,318,50.6*62
[09-36-11-157]:$BDGSV,4,4,16,20,34,038,46.9,13,57,348,46.2,22,32,240,46.9,30,00,000,36.8*67
[09-36-11-202]:$GNGGA,013641.00,2814.1133596,N,11252.1611445,E,1,26,1.0,124.1048,M,0.000,M,,*7E
[09-36-12-093]:$GPGSV,3,1,12,13,45,170,47.3,02,61,050,48.7,15,21,204,44.6,05,63,326,49.5*7E
[09-36-12-116]:$GPGSV,3,2,12,06,26,094,41.5,07,03,068,37.2,25,13,269,38.5,29,26,318,44.2*79
[09-36-12-117]:$GPGSV,3,3,12,30,07,099,40.1,19,12,150,36.7,12,16,226,39.5,04,00,000,44.5*7A
[09-36-12-117]:$GLGSV,2,1,05,65,42,022,47.8,88,71,047,47.2,87,00,000,50.1,81,00,000,49.8*6E
[09-36-12-129]:$GLGSV,2,2,05,66,00,000,53.4,,,,,,,,,,,,*4C
[09-36-12-130]:$BDGSV,4,1,16,01,45,133,44.5,02,45,230,41.2,03,57,184,43.3,04,29,113,40.5*6E
[09-36-12-147]:$BDGSV,4,2,16,05,23,252,42.0,18,00,000,45.1,06,60,168,45.2,16,55,179,45.9*6B
[09-36-12-148]:$BDGSV,4,3,16,08,60,044,45.8,09,34,192,43.3,29,64,143,50.0,19,76,318,50.5*66
[09-36-12-153]:$BDGSV,4,4,16,20,34,038,46.8,13,57,348,46.1,22,32,240,47.8,30,00,000,36.8*65
[09-36-12-212]:$GNGGA,013642.00,2814.1133530,N,11252.1611514,E,1,26,1.0,124.1160,M,0.000,M,,*7F
[09-36-13-104]:$GPGSV,3,1,12,13,45,170,47.5,02,61,050,48.1,15,21,204,45.3,05,63,326,48.9*77
[09-36-13-105]:$GPGSV,3,2,12,06,26,094,42.5,07,03,068,37.9,25,13,269,39.0,29,26,318,44.8*7F
[09-36-13-122]:$GPGSV,3,3,12,30,07,099,40.5,19,12,150,37.3,12,16,226,40.0,04,00,000,44.2*77
[09-36-13-122]:$GLGSV,2,1,05,65,42,022,48.0,88,71,047,47.9,87,00,000,50.9,81,00,000,50.3*69
[09-36-13-122]:$GLGSV,2,2,05,66,00,000,53.1,,,,,,,,,,,,*49
[09-36-13-135]:$BDGSV,4,1,16,01,45,133,44.8,02,45,230,42.7,03,57,184,43.7,04,29,113,39.7*6D
[09-36-13-136]:$BDGSV,4,2,16,05,23,252,38.3,18,00,000,43.7,06,60,168,45.1,16,55,179,45.4*6B
[09-36-13-155]:$BDGSV,4,3,16,08,60,044,45.8,09,34,192,43.0,29,64,143,49.9,19,76,318,50.7*66
[09-36-13-156]:$BDGSV,4,4,16,20,34,038,47.0,13,57,348,46.0,22,32,240,47.3,30,00,000,36.5*6B
[09-36-13-222]:$GNGGA,013643.00,2814.1133515,N,11252.1611575,E,1,26,1.0,124.1193,M,0.000,M,,*72
[09-36-14-093]:$GPGSV,3,1,12,13,45,169,47.2,02,61,050,48.8,15,21,204,45.5,05,63,326,49.4*7B
[09-36-14-116]:$GPGSV,3,2,12,06,26,094,42.3,07,03,068,38.3,25,13,269,39.9,29,26,318,45.5*79
[09-36-14-116]:$GPGSV,3,3,12,30,07,099,41.7,19,12,150,37.2,12,16,226,41.2,04,00,000,43.8*7B
[09-36-14-117]:$GLGSV,2,1,05,65,42,022,47.7,88,71,047,46.8,87,00,000,50.2,81,00,000,49.8*69
[09-36-14-127]:$GLGSV,2,2,05,66,00,000,53.3,,,,,,,,,,,,*4B
[09-36-14-128]:$BDGSV,4,1,16,01,45,133,44.0,02,45,230,42.3,03,57,184,45.5,04,29,113,41.3*6E
[09-36-14-150]:$BDGSV,4,2,16,05,23,252,38.0,18,00,000,44.8,06,60,168,44.8,16,55,179,45.8*64
[09-36-14-150]:$BDGSV,4,3,16,08,60,044,45.6,09,34,192,42.5,29,64,143,50.0,19,76,318,50.7*6D
[09-36-14-150]:$BDGSV,4,4,16,20,34,038,46.8,13,57,348,46.5,22,32,240,47.4,30,00,000,36.6*63
[09-36-14-211]:$GNGGA,013644.00,2814.1134134,N,11252.1611311,E,1,26,1.1,124.0405,M,0.000,M,,*7B
[09-36-15-102]:$GPGSV,3,1,12,13,45,169,46.0,02,61,050,48.6,15,21,204,44.9,05,63,326,49.3*7C
[09-36-15-103]:$GPGSV,3,2,12,06,26,094,41.0,07,03,068,38.6,25,13,269,39.1,29,26,318,45.2*73
[09-36-15-122]:$GPGSV,3,3,12,30,07,099,40.8,19,12,150,37.6,12,16,226,40.1,04,00,000,43.8*73
[09-36-15-122]:$GLGSV,2,1,05,65,42,022,48.4,88,71,047,48.0,87,38,125,50.5,81,00,000,49.8*69
[09-36-15-125]:$GLGSV,2,2,05,66,00,000,52.9,,,,,,,,,,,,*40
[09-36-15-141]:$BDGSV,4,1,16,01,45,133,43.3,02,45,230,42.5,03,57,184,44.0,04,29,113,38.2*67
[09-36-15-142]:$BDGSV,4,2,16,05,23,252,38.0,18,00,000,43.7,06,60,168,44.5,16,55,179,45.5*6C
[09-36-15-161]:$BDGSV,4,3,16,08,60,044,46.0,09,34,192,43.4,29,64,143,50.1,19,75,318,51.0*6C
[09-36-15-161]:$BDGSV,4,4,16,20,34,038,47.1,13,57,348,46.4,22,32,240,47.1,30,00,000,36.3*6A
[09-36-15-219]:$GNGGA,013645.00,2814.1133640,N,11252.1611619,E,1,26,1.0,124.1268,M,0.000,M,,*79
[09-36-16-094]:$GPGSV,3,1,12,13,45,169,46.9,02,61,050,47.9,15,21,204,43.7,05,63,326,48.2*7C
[09-36-16-114]:$GPGSV,3,2,12,06,26,094,41.9,07,03,068,37.9,25,13,269,39.1,29,26,318,44.1*78
[09-36-16-115]:$GPGSV,3,3,12,30,07,099,41.4,19,12,150,36.6,12,16,226,38.9,04,00,000,43.5*75
[09-36-16-115]:$GLGSV,2,1,05,65,42,022,47.3,88,71,047,47.0,87,00,000,49.6,81,00,000,49.1*61
[09-36-16-128]:$GLGSV,2,2,05,66,00,000,51.2,,,,,,,,,,,,*48
[09-36-16-130]:$BDGSV,4,1,16,01,45,133,43.9,02,45,230,40.5,03,57,184,44.7,04,29,113,38.8*62
[09-36-16-145]:$BDGSV,4,2,16,05,23,252,38.4,18,00,000,43.8,06,60,168,44.2,16,55,179,45.2*67
[09-36-16-146]:$BDGSV,4,3,16,08,60,044,44.5,09,34,192,41.9,29,64,143,48.9,19,75,319,49.9*64
[09-36-16-162]:$BDGSV,4,4,16,20,34,038,46.8,13,57,348,45.7,22,32,240,46.5,30,00,000,36.1*65
[09-36-16-209]:$GNGGA,013646.00,2814.1132521,N,11252.1614085,E,1,27,1.0,122.4689,M,0.000,M,,*70
[09-36-17-102]:$GPGSV,3,1,12,13,45,169,46.8,02,61,050,48.7,15,21,204,44.2,05,63,326,48.4*78
[09-36-17-102]:$GPGSV,3,2,12,06,26,094,41.2,07,03,068,37.5,25,13,269,38.9,29,26,318,44.3*74
[09-36-17-121]:$GPGSV,3,3,12,30,07,099,41.6,19,12,150,36.6,12,16,226,40.0,04,00,000,44.0*73
[09-36-17-123]:$GLGSV,2,1,05,65,42,022,47.2,88,71,048,46.6,87,00,000,48.6,81,00,000,47.8*6E
[09-36-17-128]:$GLGSV,2,2,05,66,00,000,51.8,,,,,,,,,,,,*42
[09-36-17-134]:$BDGSV,4,1,16,01,45,133,43.9,02,45,230,42.4,03,57,184,43.2,04,29,113,41.0*65
[09-36-17-135]:$BDGSV,4,2,16,05,23,252,38.7,18,00,000,42.3,06,60,168,44.2,16,55,179,45.0*6C
[09-36-17-160]:$BDGSV,4,3,16,08,60,044,45.3,09,34,192,41.6,29,64,143,49.5,19,75,319,50.3*63
[09-36-17-160]:$BDGSV,4,4,16,20,34,038,45.9,13,57,348,46.2,22,32,240,46.6,30,11,141,36.3*64
[09-36-17-216]:$GNGGA,013647.00,2814.1132544,N,11252.1614144,E,1,27,1.0,122.4712,M,0.000,M,,*7D
[09-36-18-094]:$GPGSV,3,1,12,13,45,169,47.2,02,61,050,49.1,15,21,204,44.3,05,63,326,50.0*78
[09-36-18-113]:$GPGSV,3,2,12,06,26,094,42.3,07,03,068,38.1,25,13,269,37.9,29,26,318,45.0*70
[09-36-18-114]:$GPGSV,3,3,12,30,07,099,41.7,19,12,150,36.7,12,16,226,39.5,04,00,000,44.2*7A
[09-36-18-117]:$GLGSV,2,1,05,65,42,022,47.6,88,71,048,47.3,87,00,000,50.2,81,00,000,50.0*6D
[09-36-18-129]:$GLGSV,2,2,05,66,00,000,53.6,,,,,,,,,,,,*4E
[09-36-18-129]:$BDGSV,4,1,16,01,45,133,45.1,02,45,230,41.5,03,57,184,43.3,04,29,113,39.2*65
[09-36-18-145]:$BDGSV,4,2,16,05,23,252,39.1,18,00,000,45.4,06,60,168,44.7,16,55,179,45.3*6D
[09-36-18-145]:$BDGSV,4,3,16,08,60,044,45.9,09,34,192,42.8,29,64,143,50.2,19,75,319,50.5*6D
[09-36-18-147]:$BDGSV,4,4,16,20,34,038,47.3,13,57,348,45.8,22,32,240,47.1,30,11,141,36.5*65
[09-36-18-210]:$GNGGA,013648.00,2814.1132588,N,11252.1614185,E,1,27,1.0,122.4725,M,0.000,M,,*7B
[09-36-19-103]:$GPGSV,3,1,12,13,45,169,47.9,02,61,050,49.0,15,21,204,44.6,05,63,326,49.6*79
[09-36-19-104]:$GPGSV,3,2,12,06,26,094,42.2,07,03,068,37.7,25,13,269,39.5,29,26,318,46.0*79
[09-36-19-124]:$GPGSV,3,3,12,30,07,099,41.4,19,12,150,36.3,12,16,226,40.5,04,00,000,43.5*73
[09-36-19-125]:$GLGSV,2,1,05,65,42,022,47.8,88,71,048,47.2,87,00,000,49.8,81,00,000,49.5*6D
[09-36-19-125]:$GLGSV,2,2,05,66,00,000,53.0,,,,,,,,,,,,*48
[09-36-19-135]:$BDGSV,4,1,16,01,45,133,43.3,02,45,230,41.8,03,57,184,45.8,04,29,113,39.7*64
[09-36-19-135]:$BDGSV,4,2,16,05,23,252,38.7,18,00,000,44.3,06,60,168,44.7,16,55,179,46.1*6D
[09-36-19-155]:$BDGSV,4,3,16,08,60,044,45.3,09,34,192,42.3,29,64,143,50.1,19,75,319,50.3*69
[09-36-19-156]:$BDGSV,4,4,16,20,34,038,46.8,13,57,348,46.3,30,11,141,31.6,22,32,240,47.2*60
[09-36-19-217]:$GNGGA,013649.00,2814.1132600,N,11252.1614232,E,1,27,1.0,122.4635,M,0.000,M,,*76
[09-36-20-093]:$GPGSV,3,1,12,13,45,169,48.0,02,61,050,49.4,15,21,204,44.9,05,63,326,49.6*74
[09-36-20-119]:$GPGSV,3,2,12,06,26,094,42.0,07,03,068,38.4,25,13,269,40.5,29,26,318,45.3*79
[09-36-20-119]:$GPGSV,3,3,12,30,07,099,40.2,19,12,150,37.3,12,16,226,41.0,04,00,000,44.1*72
[09-36-20-120]:$GLGSV,2,1,05,65,42,022,48.2,88,71,048,47.6,87,00,000,51.0,81,00,000,50.0*60
[09-36-20-126]:$GLGSV,2,2,05,66,00,000,52.5,,,,,,,,,,,,*4C
[09-36-20-127]:$BDGSV,4,1,16,01,45,133,46.2,02,45,230,40.3,03,57,184,45.3,04,29,113,40.4*6C
[09-36-20-146]:$BDGSV,4,2,16,05,23,252,40.5,18,00,000,43.9,06,60,168,44.9,16,55,179,45.8*69
[09-36-20-146]:$BDGSV,4,3,16,08,60,044,45.1,09,34,192,42.1,29,64,143,49.8,19,75,319,50.7*6C
[09-36-20-146]:$BDGSV,4,4,16,20,34,038,46.8,13,57,348,46.1,30,11,141,36.6,22,32,240,47.1*66
[09-36-20-209]:$GNGGA,013650.00,2814.1132678,N,11252.1614283,E,1,27,1.0,122.4572,M,0.000,M,,*7B
[09-36-21-103]:$GPGSV,3,1,12,13,45,169,48.0,02,61,050,49.2,15,21,204,45.1,05,63,326,50.0*75
[09-36-21-104]:$GPGSV,3,2,12,06,26,094,42.5,07,03,068,38.3,25,13,269,39.9,29,26,318,45.6*7C
[09-36-21-125]:$GPGSV,3,3,12,30,07,099,41.7,19,12,150,37.0,12,16,226,40.6,04,00,000,44.3*70
[09-36-21-125]:$GLGSV,2,1,05,65,42,022,47.8,88,71,048,47.6,87,00,000,50.8,81,00,000,50.6*6A
[09-36-21-126]:$GLGSV,2,2,05,66,00,000,53.2,,,,,,,,,,,,*4A
[09-36-21-136]:$BDGSV,4,1,16,01,45,133,46.0,02,45,230,43.1,03,57,184,45.0,04,29,113,39.2*64
[09-36-21-137]:$BDGSV,4,2,16,05,23,252,38.0,18,00,000,44.7,06,60,168,44.7,16,55,179,45.3*6F
[09-36-21-156]:$BDGSV,4,3,16,08,60,044,45.3,09,34,192,42.1,29,64,143,49.5,19,75,319,50.7*63
[09-36-21-157]:$BDGSV,4,4,16,20,34,038,46.8,13,57,348,46.0,30,11,141,36.2,22,32,240,47.4*66
